[
    {
        "startStation":{
            "name":"Klaipėda",
            "longitude":21.1390274955228,
            "latitude":55.7203837176044
        },
        "endStation":{
            "name":"Kena",
            "longitude":25.68798,
            "latitude":54.639641
        },
        "routeStations":[
            {
                "name":"Klaipėda",
                "longitude":21.1390274955228,
                "latitude":55.7203837176044
            },
            {
                "name":"Giruliai",
                "longitude":21.0951193142991,
                "latitude":55.769047387859
            },
            {
                "name":"Kretingalė",
                "longitude":21.2297472525459,
                "latitude":55.8868604389761
            },
            {
                "name":"Kretinga",
                "longitude":21.2297472525459,
                "latitude":55.8868604389761
            },
            {
                "name":"Kūlupėnai",
                "longitude":21.4756247393679,
                "latitude":55.9623511836516
            },
            {
                "name":"Šateikiai",
                "longitude":21.6470411888902,
                "latitude":55.9607100332402
            },
            {
                "name":"Plungė",
                "longitude":21.8520176809847,
                "latitude":55.919173789551
            },
            {
                "name":"Tarvainiai",
                "longitude":21.9708769170477,
                "latitude":55.9465044211505
            },
            {
                "name":"Lieplaukė",
                "longitude":22.0991642312052,
                "latitude":55.9717512780284
            },
            {
                "name":"Telšiai",
                "longitude":22.2515945457994,
                "latitude":55.9926644471131
            },
            {
                "name":"Dūseikiai",
                "longitude":22.4602065732571,
                "latitude":55.9782829964097
            },
            {
                "name":"Tryškiai",
                "longitude":22.5873969789855,
                "latitude":55.9915644659855
            },
            {
                "name":"Raudėnai",
                "longitude":22.7263335143163,
                "latitude":55.9992060694065
            },
            {
                "name":"Pavenčiai",
                "longitude":22.9311951785312,
                "latitude":55.9786848700298
            },
            {
                "name":"Kužiai",
                "longitude":23.1219843988922,
                "latitude":55.9793369529467
            },
            {
                "name":"Šiauliai",
                "longitude":23.3142059459622,
                "latitude":55.9231920435836
            },
            {
                "name":"Šilėnai",
                "longitude":23.4136442842232,
                "latitude":55.8635394931925
            },
            {
                "name":"Radviliškis",
                "longitude":23.5369555279341,
                "latitude":55.8054186769961
            },
            {
                "name":"Gimbogala",
                "longitude":23.665588,
                "latitude":55.725297
            },
            {
                "name":"Baisogala",
                "longitude":23.754312,
                "latitude":55.633473
            },
            {
                "name":"Gudžiūnai",
                "longitude":23.791665,
                "latitude":55.524863
            },
            {
                "name":"Dotnuva",
                "longitude":23.875225,
                "latitude":55.401904
            },
            {
                "name":"Kėdainiai",
                "longitude":23.978305,
                "latitude":55.308618
            },
            {
                "name":"Žeimiai",
                "longitude":24.184256,
                "latitude":55.148554
            },
            {
                "name":"Jonava",
                "longitude":24.276774,
                "latitude":55.091481
            },
            {
                "name":"Gaižiūnai",
                "longitude":24.330002,
                "latitude":55.037715
            },
            {
                "name":"Livintai",
                "longitude":24.350612,
                "latitude":54.935143
            },
            {
                "name":"Kaišiadorys",
                "longitude":24.4622310889759,
                "latitude":54.8632283361761
            },
            {
                "name":"Žaslai",
                "longitude":24.589216,
                "latitude":54.836439
            },
            {
                "name":"Vievis",
                "longitude":24.812386,
                "latitude":54.779077
            },
            {
                "name":"Lentvaris",
                "longitude":25.0479,
                "latitude":54.6444
            },
            {
                "name":"Paneriai",
                "longitude":25.178265,
                "latitude":54.629604
            },
            {
                "name":"Vilnius",
                "longitude":25.2843057775134,
                "latitude":54.6702624623437
            },
            {
                "name":"Naujoji Vilna",
                "longitude":25.42689,
                "latitude":54.694889
            },
            {
                "name":"Kyviškės",
                "longitude":25.519609,
                "latitude":54.669601
            },
            {
                "name":"Kena",
                "longitude":25.68798,
                "latitude":54.639641
            }
        ],
        "routeColor":"#ED65B9",
        "strokeWeight":8,
        "strokeOpacity":0.5
    },
    {
        "startStation":{
            "name":"Paneriai",
            "longitude":25.178265,
            "latitude":54.629604
        },
        "endStation":{
            "name":"Kyviškės",
            "longitude":25.519609,
            "latitude":54.669601
        },
        "routeStations":[
            {
                "name":"Paneriai",
                "longitude":25.178265,
                "latitude":54.629604
            },
            {
                "name":"Pušynas",
                "longitude":25.171351,
                "latitude":54.617113
            },
            {
                "name":"Vaidotai",
                "longitude":25.211928,
                "latitude":54.596011
            },
            {
                "name":"Vaičiūnai",
                "longitude":25.261792,
                "latitude":54.56318
            },
            {
                "name":"Nemežis",
                "longitude":25.372601,
                "latitude":54.648424
            },
            {
                "name":"Kyviškės",
                "longitude":25.519609,
                "latitude":54.669601
            }
        ],
        "routeColor":"#ED65B9",
        "strokeWeight":8,
        "strokeOpacity":0.5
    },
    {
        "startStation":{
            "name":"Joniškis",
            "longitude":23.599234,
            "latitude":56.23115
        },
        "endStation":{
            "name":"Mockava",
            "longitude":23.29329,
            "latitude":54.327235
        },
        "routeStations":[
            {
                "name":"Joniškis",
                "longitude":23.599234,
                "latitude":56.23115
            },
            {
                "name":"Meškučiai",
                "longitude":23.476088,
                "latitude":56.054587
            },
            {
                "name":"Gubernija",
                "longitude":23.310836,
                "latitude":55.956108
            },
            {
                "name":"Šiauliai",
                "longitude":23.313526,
                "latitude":55.923247
            },
            {
                "name":"Šilėnai",
                "longitude":23.4136442842232,
                "latitude":55.8635394931925
            },
            {
                "name":"Radviliškis",
                "longitude":23.5369555279341,
                "latitude":55.8054186769961
            },
            {
                "name":"Gimbogala",
                "longitude":23.665588,
                "latitude":55.725297
            },
            {
                "name":"Baisogala",
                "longitude":23.754312,
                "latitude":55.633473
            },
            {
                "name":"Gudžiūnai",
                "longitude":23.791665,
                "latitude":55.524863
            },
            {
                "name":"Dotnuva",
                "longitude":23.875225,
                "latitude":55.401904
            },
            {
                "name":"Kėdainiai",
                "longitude":23.978305,
                "latitude":55.308618
            },
            {
                "name":"Žeimiai",
                "longitude":24.184256,
                "latitude":55.148554
            },
            {
                "name":"Jonava",
                "longitude":24.276774,
                "latitude":55.091481
            },
            {
                "name":"Gaižiūnai",
                "longitude":24.330002,
                "latitude":55.037715
            },
            {
                "name":"Kalnėnai",
                "longitude":24.179835,
                "latitude":54.989144
            },
            {
                "name":"Palemonas",
                "longitude":24.061133,
                "latitude":54.914095
            },
            {
                "name":"Kaunas",
                "longitude":23.931801,
                "latitude":54.886223
            },
            {
                "name":"Jiesia",
                "longitude":23.919411,
                "latitude":54.819684
            },
            {
                "name":"Mauručiai",
                "longitude":23.767674,
                "latitude":54.781673
            },
            {
                "name":"Jūrė",
                "longitude":23.595125,
                "latitude":54.758913
            },
            {
                "name":"Kazlų Rūda",
                "longitude":23.499217,
                "latitude":54.748718
            },
            {
                "name":"Vinčai",
                "longitude":23.441839,
                "latitude":54.673625
            },
            {
                "name":"Marijamolė",
                "longitude":23.364639,
                "latitude":54.557498
            },
            {
                "name":"Kalvarija",
                "longitude":23.252752,
                "latitude":54.44375
            },
            {
                "name":"Šeštokai",
                "longitude":23.44411,
                "latitude":54.361195
            },
            {
                "name":"Mockava",
                "longitude":23.29329,
                "latitude":54.327235
            }
        ],
        "routeColor":"#87C864",
        "strokeWeight":8,
        "strokeOpacity":0.5
    },
    {
        "startStation":{
            "name":"Kybartai",
            "longitude":22.761125,
            "latitude":54.641569
        },
        "endStation":{
            "name":"Kaišiadorys",
            "longitude":24.459001,
            "latitude":54.863563
        },
        "routeStations":[
            {
                "name":"Kybartai",
                "longitude":22.761125,
                "latitude":54.641569
            },
            {
                "name":"Vilkaviškis",
                "longitude":23.022272,
                "latitude":54.685509
            },
            {
                "name":"Pilviškiai",
                "longitude":23.19982,
                "latitude":54.726332
            },
            {
                "name":"Kazlų Rūda",
                "longitude":23.499217,
                "latitude":54.748718
            },
            {
                "name":"Jūrė",
                "longitude":23.595125,
                "latitude":54.758913
            },
            {
                "name":"Mauručiai",
                "longitude":23.767674,
                "latitude":54.781673
            },
            {
                "name":"Jiesios",
                "longitude":23.919411,
                "latitude":54.819684
            },
            {
                "name":"Rokai",
                "longitude":23.946509,
                "latitude":54.832109
            },
            {
                "name":"Palemonas",
                "longitude":24.061133,
                "latitude":54.914095
            },
            {
                "name":"Pravieniškės",
                "longitude":24.222985,
                "latitude":54.901323
            },
            {
                "name":"Kaišiadorys",
                "longitude":24.459001,
                "latitude":54.863563
            }
        ],
        "routeColor":"#72D9F2",
        "strokeWeight":8,
        "strokeOpacity":0.5
    },
    {
        "startStation":{
            "name":"Pagėgiai",
            "longitude":21.908522,
            "latitude":55.132263
        },
        "endStation":{
            "name":"Radviliškis",
            "longitude":23.537063,
            "latitude":55.80551
        },
        "routeStations":[
            {
                "name":"Pagėgiai",
                "longitude":21.908522,
                "latitude":55.132263
            },
            {
                "name":"Tauragė",
                "longitude":22.28683,
                "latitude":55.238427
            },
            {
                "name":"Šienlaukis",
                "longitude":23.008726,
                "latitude":55.473379
            },
            {
                "name":"Tytuvėnai",
                "longitude":23.154584,
                "latitude":55.592804
            },
            {
                "name":"Jonatiškiai",
                "longitude":23.409795,
                "latitude":55.816376
            },
            {
                "name":"Radviliškis",
                "longitude":23.537063,
                "latitude":55.80551
            }
        ],
        "routeColor":"#FFFF00",
        "strokeWeight":8,
        "strokeOpacity":0.5
    },
    {
        "startStation":{
            "name":"Šeštokai",
            "longitude":23.44411,
            "latitude":54.361195
        },
        "endStation":{
            "name":"Alytus",
            "longitude":24.055882,
            "latitude":54.388408
        },
        "routeStations":[
            {
                "name":"Šeštokai",
                "longitude":23.44411,
                "latitude":54.361195
            },
            {
                "name":"Alytus",
                "longitude":24.055882,
                "latitude":54.388408
            }
        ],
        "routeColor":"#000000",
        "strokeWeight":2,
        "strokeOpacity":0.6
    },
    {
        "startStation":{
            "name":"Pagėgiai",
            "longitude":21.908522,
            "latitude":55.132263
        },
        "endStation":{
            "name":"Klaipėda",
            "longitude":21.1390274955228,
            "latitude":55.7203837176044
        },
        "routeStations":[
            {
                "name":"Pagėgiai",
                "longitude":21.908522,
                "latitude":55.132263
            },
            {
                "name":"Stoniškiai",
                "longitude":21.765208,
                "latitude":55.198441
            },
            {
                "name":"Šilutė",
                "longitude":21.484325,
                "latitude":55.3474
            },
            {
                "name":"Vilkyčiai",
                "longitude":21.408465,
                "latitude":55.518329
            },
            {
                "name":"Rimkai",
                "longitude":21.218425,
                "latitude":55.663257
            },
            {
                "name":"Klaipėda",
                "longitude":21.1390274955228,
                "latitude":55.7203837176044
            }
        ],
        "routeColor":"#000000",
        "strokeWeight":2,
        "strokeOpacity":0.6
    },
    {
        "startStation":{
            "name":"Kretinga",
            "longitude":21.2297472525459,
            "latitude":55.8868604389761
        },
        "endStation":{
            "name":"Skuodas",
            "longitude":21.492582,
            "latitude":56.264804
        },
        "routeStations":[
            {
                "name":"Kretinga",
                "longitude":21.2297472525459,
                "latitude":55.8868604389761
            },
            {
                "name":"Darbėnai",
                "longitude":21.239755,
                "latitude":56.01431
            },
            {
                "name":"Skuodas",
                "longitude":21.492582,
                "latitude":56.264804
            }
        ],
        "routeColor":"#000000",
        "strokeWeight":2,
        "strokeOpacity":0.6
    },
    {
        "startStation":{
            "name":"Bugėniai",
            "longitude":22.163787,
            "latitude":56.398509
        },
        "endStation":{
            "name":"Kužiai",
            "longitude":23.1219843988922,
            "latitude":55.9793369529467
        },
        "routeStations":[
            {
                "name":"Bugėniai",
                "longitude":22.163787,
                "latitude":56.398509
            },
            {
                "name":"Venta",
                "longitude":22.20474,
                "latitude":56.341226
            },
            {
                "name":"Mažeikiai",
                "longitude":22.340254,
                "latitude":56.31244
            },
            {
                "name":"Viekšniai",
                "longitude":22.520684,
                "latitude":56.264346
            },
            {
                "name":"Akmenė",
                "longitude":22.695775,
                "latitude":56.196016
            },
            {
                "name":"Papilė",
                "longitude":22.808401,
                "latitude":56.14902
            },
            {
                "name":"Kuršėnai",
                "longitude":22.983013,
                "latitude":56.035063
            },
            {
                "name":"Kužiai",
                "longitude":23.1219843988922,
                "latitude":55.9793369529467
            }
        ],
        "routeColor":"#000000",
        "strokeWeight":2,
        "strokeOpacity":0.6
    },
    {
        "startStation":{
            "name":"Akmenė",
            "longitude":22.695775,
            "latitude":56.196016
        },
        "endStation":{
            "name":"Karpėnai",
            "longitude":22.905117,
            "latitude":56.312974
        },
        "routeStations":[
            {
                "name":"Akmenė",
                "longitude":22.695775,
                "latitude":56.196016
            },
            {
                "name":"Alkiškiai",
                "longitude":22.854892,
                "latitude":56.264502
            },
            {
                "name":"Karpėnai",
                "longitude":22.905117,
                "latitude":56.312974
            }
        ],
        "routeColor":"#000000",
        "strokeWeight":2,
        "strokeOpacity":0.6
    },
    {
        "startStation":{
            "name":"Radviliškis",
            "longitude":23.5369555279341,
            "latitude":55.8054186769961
        },
        "endStation":{
            "name":"Pakruojus",
            "longitude":23.853947,
            "latitude":55.9692
        },
        "routeStations":[
            {
                "name":"Radviliškis",
                "longitude":23.5369555279341,
                "latitude":55.8054186769961
            },
            {
                "name":"Pakruojus",
                "longitude":23.853947,
                "latitude":55.9692
            }
        ],
        "routeColor":"#000000",
        "strokeWeight":2,
        "strokeOpacity":0.6
    },
    {
        "startStation":{
            "name":"Radviliškis",
            "longitude":23.5369555279341,
            "latitude":55.8054186769961
        },
        "endStation":{
            "name":"Obeliai",
            "longitude":25.805155,
            "latitude":55.953456
        },
        "routeStations":[
            {
                "name":"Radviliškis",
                "longitude":23.5369555279341,
                "latitude":55.8054186769961
            },
            {
                "name":"Šeduva",
                "longitude":23.777713,
                "latitude":55.738056
            },
            {
                "name":"Panevežys",
                "longitude":24.355173,
                "latitude":55.745231
            },
            {
                "name":"Subačius",
                "longitude":24.741814,
                "latitude":55.766217
            },
            {
                "name":"Kupiškis",
                "longitude":24.992556,
                "latitude":55.826036
            },
            {
                "name":"Skapiškis",
                "longitude":25.196075,
                "latitude":55.861165
            },
            {
                "name":"Rokiškis",
                "longitude":25.597233,
                "latitude":55.939243
            },
            {
                "name":"Obeliai",
                "longitude":25.805155,
                "latitude":55.953456
            }
        ],
        "routeColor":"#000000",
        "strokeWeight":2,
        "strokeOpacity":0.6
    },
    {
        "startStation":{
            "name":"Utena",
            "longitude":25.646519,
            "latitude":55.497317
        },
        "endStation":{
            "name":"Švenčionėliai",
            "longitude":25.993111,
            "latitude":55.163586
        },
        "routeStations":[
            {
                "name":"Utena",
                "longitude":25.646519,
                "latitude":55.497317
            },
            {
                "name":"Švenčionėliai",
                "longitude":25.993111,
                "latitude":55.163586
            }
        ],
        "routeColor":"#000000",
        "strokeWeight":2,
        "strokeOpacity":0.6
    },
    {
        "startStation":{
            "name":"Turmantas",
            "longitude":26.465272,
            "latitude":55.699501
        },
        "endStation":{
            "name":"Naujoji Vilna",
            "longitude":25.42689,
            "latitude":54.694889
        },
        "routeStations":[
            {
                "name":"Turmantas",
                "longitude":26.465272,
                "latitude":55.699501
            },
            {
                "name":"Dukštas",
                "longitude":26.325343,
                "latitude":55.520018
            },
            {
                "name":"Ignalina",
                "longitude":26.164546,
                "latitude":55.339057
            },
            {
                "name":"Švenčionėliai",
                "longitude":25.993111,
                "latitude":55.163586
            },
            {
                "name":"Pabradė",
                "longitude":25.760358,
                "latitude":54.97436
            },
            {
                "name":"Bezdonys",
                "longitude":25.52178,
                "latitude":54.80521
            },
            {
                "name":"Naujoji Vilna",
                "longitude":25.42689,
                "latitude":54.694889
            }
        ],
        "routeColor":"#000000",
        "strokeWeight":2,
        "strokeOpacity":0.6
    },
    {
        "startStation":{
            "name":"Vilnius",
            "longitude":25.2843057775134,
            "latitude":54.6702624623437
        },
        "endStation":{
            "name":"Stašylos",
            "longitude":25.313807,
            "latitude":54.343582
        },
        "routeStations":[
            {
                "name":"Vilnius",
                "longitude":25.2843057775134,
                "latitude":54.6702624623437
            },
            {
                "name":"Kirtimų",
                "longitude":25.27386,
                "latitude":54.63279
            },
            {
                "name":"Valčiūnai",
                "longitude":25.261796,
                "latitude":54.56318
            },
            {
                "name":"Jaušiūnai",
                "longitude":25.281815,
                "latitude":54.451845
            },
            {
                "name":"Stašylos",
                "longitude":25.313807,
                "latitude":54.343582
            }
        ],
        "routeColor":"#000000",
        "strokeWeight":2,
        "strokeOpacity":0.6
    },
    {
        "startStation":{
            "name":"Lentvaris",
            "longitude":25.0479,
            "latitude":54.6444
        },
        "endStation":{
            "name":"Marcinkonys",
            "longitude":24.407544,
            "latitude":54.052697
        },
        "routeStations":[
            {
                "name":"Lentvaris",
                "longitude":25.0479,
                "latitude":54.6444
            },
            {
                "name":"Senieji Trakai",
                "longitude":24.979737,
                "latitude":54.612698
            },
            {
                "name":"Rūdiškės",
                "longitude":24.831754,
                "latitude":54.516667
            },
            {
                "name":"Valkininkai",
                "longitude":24.831754,
                "latitude":54.516667
            },
            {
                "name":"Matuizos",
                "longitude":24.831754,
                "latitude":54.516667
            },
            {
                "name":"Varėna",
                "longitude":24.831754,
                "latitude":54.516667
            },
            {
                "name":"Marcinkonys",
                "longitude":24.407544,
                "latitude":54.052697
            }
        ],
        "routeColor":"#000000",
        "strokeWeight":2,
        "strokeOpacity":0.6
    },
    {
        "startStation":{
            "name":"Senieji Trakai",
            "longitude":24.979737,
            "latitude":54.612698
        },
        "endStation":{
            "name":"Trakai",
            "longitude":24.937659,
            "latitude":54.629012
        },
        "routeStations":[
            {
                "name":"Senieji Trakai",
                "longitude":24.979737,
                "latitude":54.612698
            },
            {
                "name":"Trakai",
                "longitude":24.937659,
                "latitude":54.629012
            }
        ],
        "routeColor":"#000000",
        "strokeWeight":2,
        "strokeOpacity":null
    },
    {
        "startStation":{
            "name":"Jonava",
            "longitude":24.276774,
            "latitude":55.091481
        },
        "endStation":{
            "name":"Rizgonys",
            "longitude":24.528077,
            "latitude":55.130748
        },
        "routeStations":[
            {
                "name":"Jonava",
                "longitude":24.276774,
                "latitude":55.091481
            },
            {
                "name":"Rizgonys",
                "longitude":24.528077,
                "latitude":55.130748
            }
        ],
        "routeColor":"#000000",
        "strokeWeight":2,
        "strokeOpacity":0.6
    },
    {
        "startStation":{
            "name":"Panevežys",
            "longitude":24.355173,
            "latitude":55.745231
        },
        "endStation":{
            "name":"Rubikai",
            "longitude":25.283145,
            "latitude":55.531316
        },
        "routeStations":[
            {
                "name":"Raguvėlė",
                "longitude":24.355173,
                "latitude":55.745231
            },
            {
                "name":"Surdegis",
                "longitude":24.795856,
                "latitude":55.657724
            },
            {
                "name":"Vašuokenai",
                "longitude":24.849893,
                "latitude":55.6277
            },
            {
                "name":"Troškūnai",
                "longitude":24.899212,
                "latitude":55.591298
            },
            {
                "name":"Anykščiai",
                "longitude":25.108838,
                "latitude":55.532257
            },
            {
                "name":"Rubikai",
                "longitude":25.283145,
                "latitude":55.531316
            }
        ],
        "routeColor":"#000000",
        "strokeWeight":2,
        "strokeOpacity":0.6
    }
]